,City,Lat,Max Temp,Cloudiness,Country,Date,Humidity,Lng,Wind Speed
0,Severo-Kuril'sk,50.68,-6.5,100,RU,1583346858,94,156.12,3.01
1,Chui,-33.7,26.91,15,UY,1583346858,50,-53.46,5.12
2,Saint Anthony,45.02,3.05,90,US,1583346859,44,-93.22,3.1
3,Mount Gambier,-37.83,15.0,90,AU,1583346859,100,140.77,3.1
4,Kahului,20.89,21.53,20,US,1583346646,78,-156.47,3.17
5,Gboko,7.32,33.7,41,NG,1583346859,36,9.0,2.86
6,Bluff,-46.6,4.44,15,NZ,1583346631,87,168.33,0.45
7,Port Alfred,-33.59,24.47,0,ZA,1583346696,76,26.89,3.45
8,Bredasdorp,-34.53,20.36,1,ZA,1583346860,64,20.04,4.1
9,Tuktoyaktuk,69.45,-37.0,75,CA,1583346817,65,-133.04,5.1
10,Birjand,32.87,4.0,40,IR,1583346760,69,59.22,2.1
11,Rikitea,-23.12,25.18,93,PF,1583346861,78,-134.97,10.02
12,Kruisfontein,-34.0,23.37,21,ZA,1583346861,61,24.73,3.09
13,East London,-33.02,27.0,0,ZA,1583346861,78,27.91,2.1
14,Bathsheba,13.22,29.0,40,BB,1583346861,58,-59.52,9.8
15,Provideniya,64.38,-17.95,0,RU,1583346862,65,-173.3,0.66
16,Fortuna,40.6,9.58,90,US,1583346862,93,-124.16,2.12
17,Puerto Ayora,-0.74,28.11,75,EC,1583346862,70,-90.35,2.1
18,Yellowknife,62.46,-22.57,75,CA,1583346604,76,-114.35,4.6
19,Pangnirtung,66.15,-12.0,90,CA,1583346862,85,-65.71,1.5
20,Albany,42.6,6.33,40,US,1583346621,39,-73.97,9.8
21,Portland,45.52,8.99,75,US,1583346604,66,-122.68,1.5
22,Sosnovka,56.26,-3.08,100,RU,1583346863,95,51.28,1.26
23,Port Blair,11.67,26.59,66,IN,1583346863,78,92.75,4.91
24,Thinadhoo,0.53,28.35,66,MV,1583346863,74,72.93,5.73
25,Longyearbyen,78.22,-9.0,75,SJ,1583346847,78,15.64,3.6
26,Bengkulu,-3.8,21.08,100,ID,1583346864,87,102.27,2.6
27,Hervey Bay,-25.3,24.35,40,AU,1583346864,83,152.85,2.6
28,Jamestown,42.1,1.93,90,US,1583346864,94,-79.24,5.7
29,Tual,-5.67,28.62,82,ID,1583346864,79,132.75,3.31
30,Atuona,-9.8,27.24,12,PF,1583346864,74,-139.03,5.77
31,Kaitangata,-46.28,8.33,0,NZ,1583346864,80,169.85,3.14
32,Mabaruma,8.2,29.18,42,GY,1583346865,58,-59.78,3.2
33,Codrington,-38.27,16.85,100,AU,1583346694,86,141.97,2.6
34,Guerrero Negro,27.98,18.88,0,MX,1583346865,52,-114.06,1.5
35,Qaanaaq,77.48,-24.93,100,GL,1583346865,96,-69.36,0.86
36,Castro,-24.79,24.17,1,BR,1583346865,44,-50.01,2.77
37,Lebu,-37.62,22.31,6,CL,1583346865,40,-73.65,5.69
38,Mar del Plata,-38.0,23.83,0,AR,1583346685,69,-57.56,5.1
39,Katsuura,35.13,8.81,75,JP,1583346866,93,140.3,2.6
40,Saint-Philippe,-21.36,25.17,75,RE,1583346866,94,55.77,2.6
41,Talnakh,69.49,-9.0,100,RU,1583346866,85,88.4,7.0
42,Hermanus,-34.42,19.44,33,ZA,1583346866,89,19.23,2.89
43,Luangwa,-15.62,21.56,55,ZM,1583346866,80,30.42,2.05
44,Mercedes,-34.65,33.13,0,AR,1583346867,34,-59.43,0.45
45,Saint Lawrence,36.06,13.21,20,MT,1583346867,71,14.2,8.7
46,Chegem,43.28,9.04,8,RU,1583346867,43,43.13,2.0
47,Ushuaia,-54.8,14.55,75,AR,1583346742,62,-68.3,2.6
48,Quatre Cocos,-20.21,26.31,40,MU,1583346867,100,57.76,1.0
49,Rameswaram,9.28,27.26,100,IN,1583346868,74,79.3,8.35
50,Sabang,5.89,27.85,42,ID,1583346868,76,95.32,3.83
51,Lavrentiya,65.58,-19.44,0,RU,1583346868,83,-171.0,0.31
52,Havøysund,71.0,-5.5,20,NO,1583346868,73,24.66,14.9
53,Grenville,12.12,29.0,20,GD,1583346868,62,-61.62,9.3
54,Verāval,20.9,19.98,0,IN,1583346868,87,70.37,3.16
55,Bayan,46.08,-14.19,20,CN,1583346868,94,127.4,3.04
56,Avarua,-21.21,27.0,1,CK,1583346869,88,-159.78,1.0
57,Saint-François,46.42,8.19,90,FR,1583346869,70,3.91,4.1
58,Saskylakh,71.92,-18.25,98,RU,1583346869,95,114.08,1.5
59,Xining,36.62,-2.44,0,CN,1583346869,39,101.77,2.33
60,Ambon City,-3.7,26.0,40,ID,1583346869,94,128.18,2.6
61,Mount Isa,-20.73,23.0,90,AU,1583346637,100,139.5,2.6
62,Tura,25.52,20.11,0,IN,1583346870,55,90.22,1.31
63,Douglas,41.3,12.67,1,US,1583346870,37,-96.17,2.6
64,Hithadhoo,-0.6,28.44,100,MV,1583346779,76,73.08,6.81
65,Saint Paul Harbor,57.79,-11.0,40,US,1583346870,56,-152.41,9.8
66,Revda,56.8,0.0,40,RU,1583346870,96,59.93,4.0
67,Moyale,3.52,26.7,100,KE,1583346871,48,39.06,1.64
68,Iralaya,15.0,31.0,75,HN,1583346871,66,-83.23,4.1
69,Pacifica,37.61,19.03,40,US,1583346871,72,-122.49,2.1
70,Takoradze,4.88,28.6,48,GH,1583346872,74,-1.76,3.09
71,Shenjiamen,29.96,8.22,100,CN,1583346872,67,122.3,8.57
72,Vaini,-21.2,24.0,75,TO,1583346872,88,-175.2,2.1
73,Dingle,11.0,23.29,31,PH,1583346872,83,122.67,3.68
74,Kumul,42.8,4.6,1,CN,1583346872,34,93.45,4.83
75,Ponta Delgada,37.73,15.0,20,PT,1583346873,54,-25.67,7.7
76,Dunedin,-45.87,9.39,10,NZ,1583346810,81,170.5,3.32
77,Kapit,2.02,22.79,100,MY,1583346873,99,112.93,0.69
78,New Norfolk,-42.78,13.94,90,AU,1583346696,100,147.06,3.6
79,Salalah,17.02,26.0,20,OM,1583346873,74,54.09,1.5
80,Kurchum,48.57,-12.31,0,KZ,1583346873,83,83.65,2.34
81,Makakilo City,21.35,21.22,2,US,1583346873,88,-158.09,0.51
82,Pec,42.66,5.0,75,XK,1583346874,80,20.29,3.1
83,Iqaluit,63.75,-15.0,75,CA,1583346874,77,-68.51,1.0
84,Arraial do Cabo,-22.97,26.65,75,BR,1583346695,74,-42.03,6.2
85,Cayenne,4.93,30.0,40,GF,1583346874,62,-52.33,6.2
86,Nanortalik,60.14,-6.45,0,GL,1583346874,60,-45.24,7.1
87,Jinhua,29.11,6.59,100,CN,1583346874,93,119.65,1.68
88,Māgadi,12.97,26.23,40,IN,1583346875,50,77.23,2.1
89,Carnarvon,-24.87,26.0,0,AU,1583346667,88,113.63,4.6
90,Sangar,63.92,-18.07,100,RU,1583346875,83,127.47,6.46
91,State College,40.79,10.08,75,US,1583346844,45,-77.86,4.1
92,Margate,51.38,6.04,75,GB,1583346608,93,1.39,3.1
93,Khatanga,71.97,-20.52,88,RU,1583346875,100,102.5,0.88
94,Rock Sound,24.9,23.57,29,BS,1583346876,84,-76.2,6.05
95,Pevek,69.7,-19.63,2,RU,1583346876,71,170.31,4.62
96,Aswān,24.09,22.46,0,EG,1583346876,12,32.91,2.23
97,Tiksi,71.69,-16.28,100,RU,1583346876,81,128.87,9.14
98,Sechura,-5.56,24.02,0,PE,1583346876,88,-80.82,6.15
99,Kavieng,-2.57,28.98,100,PG,1583346694,64,150.8,3.64
100,Mataura,-46.19,4.44,6,NZ,1583346877,87,168.86,0.45
101,Kapaa,22.08,20.24,1,US,1583346877,94,-159.32,3.1
102,Innisfail,-17.53,24.31,72,AU,1583346643,89,146.03,1.12
103,Hoa Binh,20.81,17.0,90,VN,1583346877,88,105.34,2.6
104,Bandar-e Lengeh,26.56,19.0,0,IR,1583346642,63,54.88,2.1
105,Moses Lake,47.13,10.0,1,US,1583346878,23,-119.28,10.3
106,General Roca,-39.03,38.0,0,AR,1583346878,24,-67.58,4.6
107,Leningradskiy,69.38,-18.06,25,RU,1583346878,64,178.42,2.34
108,Uniontown,39.9,11.54,1,US,1583346878,34,-79.72,4.1
109,Duvergé,18.38,30.0,20,DO,1583346878,66,-71.52,6.7
110,Hobart,-42.88,14.02,90,AU,1583346879,100,147.33,3.6
111,Thompson,55.74,-7.0,75,CA,1583346879,67,-97.86,2.1
112,Praia da Vitória,38.73,17.0,40,PT,1583346879,59,-27.07,8.96
113,Punta Arenas,-53.15,13.64,75,CL,1583346879,87,-70.92,3.6
114,Daru,-9.08,25.41,100,PG,1583346879,90,143.21,1.19
115,Vrangel',42.73,-0.5,100,RU,1583346880,64,133.08,12.83
116,Phalaborwa,-23.94,21.81,42,ZA,1583346880,71,31.14,2.65
117,Chapais,49.78,-5.0,90,CA,1583346761,79,-74.85,5.7
118,Marawi,8.0,23.89,83,PH,1583346880,89,124.29,2.68
119,Chokurdakh,70.63,-24.37,0,RU,1583346880,77,147.92,1.08
120,Tasiilaq,65.61,0.0,75,GL,1583346881,70,-37.64,1.0
121,Ponta do Sol,32.67,16.21,75,PT,1583346881,72,-17.1,5.1
122,Gorontalo,0.54,23.55,100,ID,1583346881,96,123.06,1.02
123,Porbandar,21.64,24.23,0,IN,1583346881,75,69.61,5.72
124,São Félix do Xingu,-6.64,30.08,44,BR,1583346881,71,-51.99,1.3
125,Ribeira Grande,38.52,16.0,40,PT,1583346882,59,-28.7,7.2
126,Srednekolymsk,67.45,-19.42,89,RU,1583346882,73,153.68,2.17
127,Jumla,29.27,-0.65,63,NP,1583346882,84,82.18,1.73
128,Cape Town,-33.93,19.16,20,ZA,1583346620,88,18.42,2.1
129,Apastovo,55.2,0.0,100,RU,1583346882,96,48.51,2.0
130,Busselton,-33.65,15.62,63,AU,1583346695,51,115.33,4.54
131,Maturin,9.75,31.73,73,VE,1583346590,45,-63.18,3.78
132,Nísia Floresta,-6.09,31.0,20,BR,1583346883,62,-35.21,5.7
133,Gravdal,68.12,1.56,75,NO,1583346883,51,13.5,6.2
134,Te Anau,-45.42,4.97,6,NZ,1583346883,81,167.72,1.07
135,Sakakah,29.97,19.0,0,SA,1583346883,22,40.21,4.1
136,Hilo,19.73,21.13,90,US,1583346884,83,-155.09,0.66
137,Angoram,-4.06,23.3,100,PG,1583346884,99,144.07,1.44
138,Mombetsu,44.35,-3.69,100,JP,1583346884,87,143.35,7.93
139,Shimoda,34.67,8.32,75,JP,1583346884,93,138.95,3.6
140,Berlevåg,70.86,-7.0,56,NO,1583346885,57,29.09,5.1
141,Butaritari,3.07,28.08,60,KI,1583346885,78,172.79,7.53
142,Shingū,33.73,10.07,99,JP,1583346885,69,135.98,7.66
143,Arman',59.7,-12.66,100,RU,1583346885,96,150.17,2.16
144,Russell,32.35,14.49,90,US,1583346885,93,-85.2,2.6
145,Fort Nelson,58.81,-15.0,75,CA,1583346643,65,-122.7,1.0
146,Isangel,-19.55,23.0,40,VU,1583346886,94,169.27,4.93
147,Krasnoarmeysk,51.02,5.56,72,RU,1583346886,85,45.7,0.45
148,Stokmarknes,68.56,-0.33,76,NO,1583346664,55,14.91,8.2
149,Whitecourt,54.15,1.0,75,CA,1583346703,59,-115.69,9.3
150,Kolokani,13.57,35.93,0,ML,1583346887,5,-8.03,2.72
151,Haines Junction,60.75,-21.51,100,CA,1583346887,98,-137.51,2.87
152,Kodinsk,58.69,-7.98,100,RU,1583346887,96,99.18,2.43
153,Dikson,73.51,-24.22,92,RU,1583346887,99,80.55,5.33
154,Tataouine,32.93,20.0,0,TN,1583346888,22,10.45,4.1
155,Kärdla,59.0,3.89,100,EE,1583346888,92,22.75,3.58
156,Northam,51.03,7.4,75,GB,1583346888,100,-4.22,3.1
157,Binka,21.03,23.2,0,IN,1583346888,62,83.8,1.28
158,Pedernales,18.04,30.0,20,DO,1583346888,66,-71.74,6.7
159,Murud,18.33,18.04,0,IN,1583346889,88,72.97,0.73
160,Kresttsy,58.25,4.59,100,RU,1583346889,89,32.52,5.64
161,Lesnoy,57.62,-4.32,99,RU,1583346889,90,63.08,3.35
162,Padang,-0.95,20.55,100,ID,1583346889,96,100.35,0.99
163,Saldanha,-33.01,22.0,43,ZA,1583346889,68,17.94,5.7
164,Itarema,-2.92,28.81,30,BR,1583346889,78,-39.92,3.7
165,Arinos,-15.92,27.84,41,BR,1583346890,76,-46.11,1.86
166,Novaya Ladoga,60.1,2.84,100,RU,1583346890,85,32.3,6.1
167,Bethel,41.37,11.06,40,US,1583346890,29,-73.41,8.2
168,Matara,5.95,24.04,44,LK,1583346890,92,80.54,0.8
169,Nikolskoye,59.7,2.44,90,RU,1583346890,86,30.79,8.0
170,Parole,38.98,15.5,1,US,1583346809,35,-76.53,3.1
171,Waddān,29.16,19.28,0,LY,1583346891,25,16.14,7.75
172,Nuuk,64.18,-9.0,20,GL,1583346891,66,-51.72,6.7
173,Franca,-20.54,24.52,27,BR,1583346891,78,-47.4,3.41
174,Cururupu,-1.83,25.38,100,BR,1583346891,95,-44.87,0.86
175,Sol'-Iletsk,51.16,-3.2,93,RU,1583346891,97,54.99,2.51
176,Cabo San Lucas,22.89,21.23,20,MX,1583346892,49,-109.91,3.1
177,Camacha,33.08,17.24,75,PT,1583346892,68,-16.33,4.1
178,Predivinsk,57.07,-4.85,100,RU,1583346892,92,93.44,4.51
179,San Patricio,19.22,27.0,20,MX,1583346892,78,-104.7,6.2
180,Brownsville,25.9,24.77,90,US,1583346892,60,-97.5,12.3
181,Port Keats,-14.25,26.96,66,AU,1583346892,85,129.55,3.53
182,George Town,5.41,27.91,40,MY,1583346789,83,100.34,1.5
183,Torbay,47.67,3.2,90,CA,1583346893,100,-52.73,7.7
184,Fairbanks,64.84,-32.04,20,US,1583346672,98,-147.72,0.7
185,Upernavik,72.79,-24.05,99,GL,1583346666,67,-56.15,2.51
186,Palana,59.12,-15.21,16,RU,1583346784,80,159.97,1.92
187,Semporna,4.48,26.0,20,MY,1583346894,94,118.61,1.94
188,Pak Phanang,8.35,25.22,68,TH,1583346894,85,100.2,1.11
189,Aykhal,66.0,-17.0,78,RU,1583346894,84,111.5,2.0
190,Kavaratti,10.57,27.68,64,IN,1583346894,75,72.64,5.97
191,Buchanan,5.88,28.9,72,LR,1583346895,74,-10.05,3.59
192,Lincoln,40.8,14.17,1,US,1583346895,28,-96.67,2.1
193,Broome,42.25,6.45,75,US,1583346895,44,-75.83,6.7
194,Howard Springs,-12.5,26.84,53,AU,1583346895,83,131.05,2.1
195,Coos Bay,43.37,10.21,75,US,1583346878,81,-124.22,1.5
196,Skjervøy,70.03,-3.91,18,NO,1583346896,59,20.97,9.61
197,Asău,46.43,13.47,99,RO,1583346896,67,26.4,7.7
198,São João da Barra,-21.64,25.0,90,BR,1583346896,78,-41.05,4.1
199,Kieta,-6.22,27.47,100,PG,1583346896,81,155.63,2.38
200,Constitución,-35.33,21.72,1,CL,1583346896,45,-72.42,6.03
201,Hamilton,39.18,14.93,90,US,1583346639,31,-84.53,7.2
202,Souillac,-20.52,26.28,40,MU,1583346896,100,57.52,1.0
203,Syumsi,57.11,-2.16,100,RU,1583346897,96,51.61,1.52
204,Remanso,-9.62,29.53,45,BR,1583346897,67,-42.08,1.49
205,Cabra,37.47,17.73,35,ES,1583346897,49,-4.44,3.6
206,Prieska,-29.66,29.43,0,ZA,1583346897,21,22.75,2.04
207,Ilulissat,69.22,-22.0,20,GL,1583346897,52,-51.1,2.1
208,Taltal,-25.4,20.35,0,CL,1583346897,63,-70.48,4.09
209,Maceió,-9.67,32.0,40,BR,1583346898,59,-35.74,7.7
210,Ati,13.22,31.61,11,TD,1583346898,12,18.34,4.76
211,Olafsvik,64.89,-0.27,88,IS,1583346898,67,-23.71,3.75
212,Ambulu,-8.35,27.01,99,ID,1583346898,84,113.61,2.87
213,Pizhanka,57.46,-0.38,100,RU,1583346898,95,48.54,4.84
214,Vanavara,60.34,-10.76,100,RU,1583346898,96,102.28,2.27
215,Burns Lake,54.23,-3.85,0,CA,1583346899,70,-125.75,3.63
216,Antalaha,-14.9,27.7,100,MG,1583346899,78,50.28,9.73
217,La Ronge,55.1,-7.0,75,CA,1583346899,92,-105.28,3.6
218,Muros,42.78,14.79,75,ES,1583346899,100,-9.06,6.2
219,Los Llanos de Aridane,28.66,19.2,20,ES,1583346899,77,-17.92,4.6
220,Tongliao,43.61,-11.66,0,CN,1583346900,78,122.27,2.77
221,Mendi,-6.18,14.02,100,PG,1583346900,99,143.65,1.01
222,Homer,59.64,-16.64,20,US,1583346663,59,-151.55,3.1
223,Tuatapere,-46.13,4.44,2,NZ,1583346900,87,167.68,0.45
224,Laguna,38.42,18.91,1,US,1583346900,51,-121.42,0.65
225,San Jose,37.34,18.74,75,US,1583346900,51,-121.89,0.57
226,Fethiye,36.62,16.0,75,TR,1583346901,72,29.12,2.1
227,Katherine,-14.47,27.0,90,AU,1583346901,78,132.27,2.1
228,Faanui,-16.48,27.63,90,PF,1583346901,79,-151.75,4.74
229,Umm Kaddadah,13.6,27.75,0,SD,1583346901,11,26.69,4.56
230,Sitrah,26.15,18.09,0,BH,1583346901,55,50.62,5.7
231,Orbe,46.73,3.78,75,CH,1583346901,52,6.53,1.5
232,Östersund,63.18,-3.71,90,SE,1583346902,100,14.64,2.6
233,Nome,64.5,-21.04,1,US,1583346902,83,-165.41,2.23
234,Ligayan,4.65,27.4,100,PH,1583346902,81,119.47,5.28
235,Tourlaville,49.64,9.25,90,FR,1583346902,100,-1.57,7.2
236,Camabatela,-8.19,19.53,14,AO,1583346903,92,15.38,1.67
237,Pontes e Lacerda,-15.23,32.26,46,BR,1583346717,41,-59.34,1.63
238,Lixouri,38.2,12.85,75,GR,1583346903,76,20.43,2.6
239,Hong Kong,22.29,17.48,40,HK,1583346903,82,114.16,3.6
240,Palembang,-2.92,24.31,100,ID,1583346620,93,104.75,1.98
241,Zyryanka,65.75,-22.4,0,RU,1583346903,82,150.85,5.01
242,Santa Rosa,14.31,24.26,20,PH,1583346904,83,121.11,2.6
243,Samarai,-10.62,25.1,100,PG,1583346904,90,150.67,1.28
244,Grindavik,63.84,-1.53,75,IS,1583346904,86,-22.43,4.6
245,Kautokeino,69.01,-16.35,1,NO,1583346904,91,23.04,3.69
246,Barrow,71.29,-37.0,1,US,1583346904,98,-156.79,2.1
247,Wenling,28.37,7.78,100,CN,1583346904,77,121.36,5.81
248,Sobolevo,54.43,6.43,100,RU,1583346905,84,31.9,6.53
249,Chegdomyn,51.12,-13.1,96,RU,1583346724,97,133.02,0.31
250,Martapura,-3.42,22.7,100,ID,1583346905,93,114.85,0.18
251,Guía de Isora,28.21,20.73,15,ES,1583346905,64,-16.78,2.6
252,Klaksvík,62.23,2.0,95,FO,1583346905,80,-6.59,3.1
253,Goderich,43.75,2.24,91,CA,1583346643,84,-81.72,7.33
254,Airai,-8.93,20.12,93,TL,1583346906,96,125.41,0.79
255,Saint George,37.1,11.81,1,US,1583346906,40,-113.58,0.91
256,Ware,51.81,5.47,90,GB,1583346906,93,-0.03,3.6
257,Alice Springs,-23.7,17.0,40,AU,1583346861,100,133.88,1.5
258,Sibolga,1.74,22.69,100,ID,1583346829,95,98.78,1.17
259,Hasaki,35.73,7.52,75,JP,1583346907,100,140.83,2.6
260,Camaná,-16.62,22.11,91,PE,1583346907,74,-72.71,4.56
261,San Ignacio,17.16,34.28,2,BZ,1583346907,53,-89.07,3.1
262,Huarmey,-10.07,29.95,74,PE,1583346907,47,-78.15,5.08
263,Poum,-20.23,27.04,1,NC,1583346908,78,164.02,5.13
264,Praia,14.92,29.0,0,CV,1583346908,28,-23.51,8.7
265,Narasannapeta,18.42,22.86,26,IN,1583346908,78,84.05,0.16
266,Mossamedes,-15.2,23.32,0,AO,1583346683,84,12.15,6.96
267,Taldan,53.67,-13.71,100,RU,1583346908,96,124.8,2.58
268,Nixa,37.04,12.14,1,US,1583346908,48,-93.29,2.6
269,Esperance,-33.87,15.0,0,AU,1583346909,82,121.9,5.1
270,Alvorada,-12.48,28.1,56,BR,1583346909,85,-49.12,2.33
271,Rapid Valley,44.06,12.21,1,US,1583346730,24,-103.15,2.6
272,Las Palmas,28.42,21.0,0,ES,1583346909,77,-14.01,6.2
273,Viedma,-40.81,38.01,6,AR,1583346683,11,-63.0,7.6
274,Naze,28.37,15.0,90,JP,1583346909,72,129.48,8.7
275,Khonsa,27.02,12.37,12,IN,1583346910,79,95.57,2.42
276,Hirara,24.8,19.17,100,JP,1583346910,84,125.28,12.69
277,Port Lincoln,-34.73,15.83,56,AU,1583346910,81,135.87,5.63
278,Coquimbo,-29.95,19.0,75,CL,1583346667,72,-71.34,3.6
279,Jilib,0.49,25.06,16,SO,1583346910,79,42.79,2.05
280,Puerto Escondido,15.85,28.0,5,MX,1583346910,69,-97.07,5.1
281,Leh,34.17,-15.82,96,IN,1583346911,50,77.58,2.1
282,Jalu,29.03,19.22,67,LY,1583346911,28,21.55,3.92
283,Sungai Penuh,-2.08,17.8,100,ID,1583346911,98,101.38,0.85
284,Henties Bay,-22.12,20.56,0,NA,1583346911,88,14.28,1.79
285,College,64.86,-32.83,20,US,1583346911,98,-147.8,0.49
286,San Ramon,37.78,18.9,1,US,1583346793,48,-121.98,2.1
287,São Filipe,14.9,24.47,0,CV,1583346911,60,-24.5,4.86
288,Carinhanha,-14.3,29.04,76,BR,1583346912,65,-43.77,2.13
289,General Pico,-35.66,37.01,0,AR,1583346912,11,-63.76,4.38
290,Sur,22.57,20.6,0,OM,1583346912,57,59.53,3.16
291,Ancud,-41.87,22.0,20,CL,1583346912,56,-73.82,3.1
292,Port Elizabeth,-33.92,24.0,0,ZA,1583346623,69,25.57,6.7
293,Nizwá,22.93,17.79,0,OM,1583346912,36,57.53,2.6
294,Tena,-0.98,29.45,75,EC,1583346913,74,-77.82,1.0
295,Ayagoz,47.97,-11.77,7,KZ,1583346913,59,80.44,1.55
296,Pochutla,15.74,31.95,5,MX,1583346913,49,-96.47,5.1
297,Ode,7.79,32.64,66,NG,1583346913,34,5.71,2.35
298,Talaya,61.38,-22.12,0,RU,1583346914,89,152.75,4.14
299,Vila Velha,-20.33,26.41,75,BR,1583346914,100,-40.29,5.7
300,Geraldton,-28.77,21.0,67,AU,1583346914,83,114.6,2.1
301,Candelaria,13.93,24.44,20,PH,1583346914,88,121.42,0.45
302,Krasnosel'kup,65.7,-15.49,61,RU,1583346914,97,82.47,4.37
303,Linqiong,30.42,12.0,40,CN,1583346914,76,103.46,0.16
304,Port Macquarie,-31.43,21.99,90,AU,1583346734,88,152.92,2.1
305,Jiayuguan City,39.82,3.37,0,CN,1583346915,24,98.3,5.31
306,Tanta,30.79,13.96,5,EG,1583346915,82,31.0,2.77
307,Vestmannaeyjar,63.44,0.0,75,IS,1583346915,54,-20.27,2.1
308,Cuamba,-14.8,20.13,94,MZ,1583346915,86,36.54,2.52
309,Palmer,42.16,8.49,40,US,1583346712,31,-72.33,9.3
310,Kiryat Gat,31.61,15.58,0,IL,1583346916,72,34.76,1.5
311,Lagoa,39.05,15.32,0,PT,1583346916,67,-27.98,9.25
312,Misratah,32.38,15.59,83,LY,1583346713,71,15.09,15.72
313,Assiniboia,49.63,2.09,91,CA,1583346916,82,-105.98,9.7
314,Middletown,39.52,14.48,75,US,1583346645,51,-84.4,4.6
315,Pacific Grove,36.62,17.55,1,US,1583346688,55,-121.92,2.1
316,Yulara,-25.24,18.0,0,AU,1583346916,55,130.99,3.1
317,Banda Aceh,5.56,23.81,78,ID,1583346917,87,95.32,1.47
318,Tortolì,39.93,11.35,75,IT,1583346917,58,9.66,3.6
319,Acapulco de Juárez,16.86,29.0,5,MX,1583346866,74,-99.89,3.1
320,Nhulunbuy,-12.23,28.0,40,AU,1583346917,88,136.77,3.6
321,Freeport,40.66,11.84,1,US,1583346624,30,-73.58,8.7
322,San Jerónimo,-11.95,13.52,76,PE,1583346918,56,-75.28,2.26
323,Teruel,40.67,15.49,83,ES,1583346918,58,-0.67,4.1
324,Clyde River,70.47,-24.0,75,CA,1583346918,76,-68.59,7.2
325,Khasan,42.43,-5.09,75,RU,1583346918,77,130.64,7.07
326,Hue,16.47,24.0,75,VN,1583346914,88,107.6,4.1
327,Ahipara,-35.17,17.22,99,NZ,1583346919,100,173.17,3.05
328,Loandjili,-4.76,29.0,40,CG,1583346919,83,11.86,5.1
329,Juegang,32.32,5.0,17,CN,1583346919,70,121.19,4.22
330,Wajima,37.4,6.61,100,JP,1583346919,74,136.9,11.27
331,Touba,8.28,34.88,67,CI,1583346919,25,-7.68,3.0
332,Poya,-21.35,26.22,0,NC,1583346920,79,165.15,4.14
333,Novoagansk,61.94,-13.87,67,RU,1583346920,83,76.66,6.78
334,Port-Gentil,-0.72,29.0,20,GA,1583346920,89,8.78,2.6
335,Penzance,50.12,8.85,98,GB,1583346727,100,-5.54,4.6
336,Skibbereen,51.55,6.0,75,IE,1583346921,87,-9.27,1.5
337,Lorengau,-2.02,28.59,84,PG,1583346921,73,147.27,2.86
338,Labuhan,-6.88,23.88,100,ID,1583346921,97,112.21,1.05
339,Kilindoni,-7.91,27.15,100,TZ,1583346921,80,39.67,6.25
340,Mayya,61.73,-28.0,0,RU,1583346921,82,130.28,1.0
341,Cherskiy,68.75,-17.68,61,RU,1583346921,74,161.3,6.04
342,Sitka,57.05,1.0,90,US,1583346921,80,-135.33,1.5
343,Māngrol,21.12,24.7,0,IN,1583346922,72,70.12,5.99
344,Thouars,46.98,11.06,90,FR,1583346922,93,-0.22,3.6
345,Corrales,35.24,12.21,1,US,1583346922,22,-106.61,2.6
346,Nelson Bay,-32.72,22.23,75,AU,1583346922,83,152.15,3.6
347,Yiyang,28.59,9.18,100,CN,1583346923,89,112.33,0.49
348,Bambous Virieux,-20.34,26.29,40,MU,1583346923,100,57.76,1.0
349,Kongolo,-5.38,20.1,56,CD,1583346923,90,27.0,0.99
350,‘Āhuimanu,21.44,21.3,20,US,1583346923,69,-157.84,1.5
351,Mianyang,31.46,10.01,100,CN,1583346923,82,104.75,1.47
352,Ibipeba,-11.64,30.32,70,BR,1583346923,46,-42.01,0.98
353,Aktau,43.65,4.0,40,KZ,1583346924,100,51.2,2.0
354,Nara,34.69,5.57,20,JP,1583346924,75,135.8,14.9
355,Lal'sk,60.74,-10.59,18,RU,1583346924,94,47.59,2.14
356,Walkerburn,55.62,4.46,20,GB,1583346924,86,-3.02,3.1
357,Tigil',57.8,-15.46,58,RU,1583346924,90,158.67,2.17
358,Lakatoro,-16.1,23.0,40,VU,1583346925,100,167.42,0.5
359,Cidreira,-30.18,22.83,59,BR,1583346750,76,-50.21,6.8
360,Conde,-7.26,31.0,40,BR,1583346925,66,-34.91,5.1
361,Benguela,-12.58,27.0,75,AO,1583346925,78,13.41,4.1
362,Fare,-16.7,27.51,66,PF,1583346925,78,-151.02,5.38
363,Sorong,-0.88,23.48,97,ID,1583346925,98,131.25,0.68
364,Ikorodu,6.62,31.0,20,NG,1583346925,74,3.5,2.6
365,Hengshui,37.73,0.62,0,CN,1583346926,30,115.7,3.64
366,Ketchikan,55.34,1.5,90,US,1583346926,80,-131.65,2.1
367,Honningsvåg,70.98,-5.0,20,NO,1583346926,73,25.97,14.9
368,Adilabad,19.67,24.84,0,IN,1583346926,16,78.53,1.94
369,Lima,-12.04,26.0,64,PE,1583346916,69,-77.03,4.1
370,Gazimurskiy Zavod,51.55,-20.33,33,RU,1583346927,96,118.33,1.64
371,Maniitsoq,65.42,-10.2,0,GL,1583346927,37,-52.9,1.87
372,Tazovsky,67.47,-14.18,98,RU,1583346927,95,78.7,2.32
373,Ucluelet,48.93,6.6,75,CA,1583346927,81,-125.55,2.1
374,Tilichiki,60.47,-19.24,50,RU,1583346784,77,166.1,2.11
375,Konya Province,38.17,12.0,50,TR,1583346927,40,32.5,5.1
376,Rājāpur,25.38,21.57,0,IN,1583346928,40,81.15,2.16
377,Iquitos,-3.75,6.0,75,PE,1583346928,100,-73.25,2.1
378,Panguna,-6.32,21.74,100,PG,1583346928,98,155.48,0.44
379,Okha,53.57,-13.7,71,RU,1583346928,98,142.95,1.63
380,Taft,31.75,11.0,0,IR,1583346928,32,54.21,1.0
381,Morehead,37.27,18.46,1,US,1583346929,24,-87.18,8.2
382,Teguise,29.06,22.0,20,ES,1583346929,64,-13.56,7.7
383,Buraidah,26.33,19.0,0,SA,1583346694,34,43.98,3.1
384,Beloha,-25.17,22.13,92,MG,1583346929,76,45.05,8.28
385,Saint-Augustin,51.23,0.51,100,CA,1583346929,78,-58.65,12.2
386,Hambantota,6.12,26.46,46,LK,1583346929,73,81.12,1.75
387,Mundo Nuevo (Ojo de Agua),18.7,31.74,0,MX,1583346930,51,-95.5,8.05
388,Tateyama,34.98,8.58,75,JP,1583346930,93,139.87,2.6
389,Kudahuvadhoo,2.67,28.34,49,MV,1583346930,73,72.89,4.62
390,Preobrazheniye,42.9,-5.74,100,RU,1583346930,84,133.91,2.54
391,Sinnamary,5.38,26.4,3,GF,1583346930,71,-52.95,5.15
392,Mangan,27.52,4.13,83,IN,1583346931,65,88.53,2.37
393,Hazaribagh,23.98,19.49,15,IN,1583346931,57,85.35,1.87
394,Cockburn Town,21.46,29.0,40,TC,1583346869,66,-71.14,8.2
395,Qaqortoq,60.72,-11.0,5,GL,1583346931,43,-46.03,0.5
396,Coyhaique,-45.58,20.48,40,CL,1583346931,53,-72.07,3.1
397,Teya,60.38,-5.92,97,RU,1583346932,89,92.63,4.96
398,Lüderitz,-26.65,21.0,22,NA,1583346932,83,15.16,5.7
399,Neuquén,-38.95,38.0,10,AR,1583346932,24,-68.06,4.6
400,Nampa,43.54,11.36,1,US,1583346932,40,-116.56,2.6
401,Golden,39.76,12.49,1,US,1583346932,9,-105.22,8.2
402,Asifābād,19.37,22.89,9,IN,1583346932,62,79.28,0.9
403,Touros,-5.2,31.0,20,BR,1583346933,62,-35.46,5.7
404,Nemuro,43.32,-0.85,100,JP,1583346933,92,145.57,7.46
405,Petropavlovsk-Kamchatskiy,53.05,-13.0,97,RU,1583346933,78,158.65,4.0
406,Severo-Yeniseyskiy,60.37,-6.11,100,RU,1583346933,89,93.04,6.07
407,Oktyabr'skiy,54.48,-2.86,99,RU,1583346717,97,53.47,0.73
408,Ailigandí,9.23,30.03,55,PA,1583346933,55,-78.02,3.65
409,Orapa,-21.28,23.52,46,BW,1583346934,44,25.37,5.43
410,Vao,-22.67,25.95,2,NC,1583346934,79,167.48,4.93
411,Walvis Bay,-22.96,21.45,15,NA,1583346807,73,14.51,6.2
412,Bowen,-20.02,25.53,40,AU,1583346934,94,148.23,2.1
413,Rocha,-34.48,28.02,0,UY,1583346935,42,-54.33,6.32
414,Luganville,-15.53,23.0,40,VU,1583346935,100,167.17,0.5
415,Parnamirim,-5.92,31.0,20,BR,1583346935,62,-35.26,5.7
416,Mananjary,-21.22,25.8,15,MG,1583346935,82,48.33,5.66
417,Evensk,61.95,-18.67,100,RU,1583346935,96,159.23,2.73
418,Vilcún,-38.65,26.25,22,CL,1583346935,50,-72.23,5.1
419,Lata,40.16,15.44,75,PT,1583346936,87,-8.33,4.6
420,Santa Cruz Cabrália,-16.28,31.0,40,BR,1583346936,62,-39.02,9.3
421,Nova Viçosa,-17.89,29.33,40,BR,1583346936,67,-39.37,6.4
422,Svetlaya,46.54,-5.32,100,RU,1583346936,87,138.33,10.19
423,Narsaq,60.92,-11.0,5,GL,1583346936,43,-46.05,0.5
424,Sahuaripa,29.05,15.46,0,MX,1583346936,44,-109.23,0.68
425,Manokwari,-0.87,23.1,100,ID,1583346937,84,134.08,1.68
426,Mahibadhoo,3.78,28.23,71,MV,1583346937,72,72.97,3.14
427,Butig,7.72,20.59,29,PH,1583346937,89,124.3,1.07
428,Saulkrasti,57.26,4.63,90,LV,1583346937,86,24.41,3.1
429,Sørland,67.67,2.55,75,NO,1583346938,68,12.69,8.7
430,Kushmurun,52.45,-7.02,100,KZ,1583346938,84,64.63,3.5
431,San Cristobal,7.77,33.0,40,VE,1583346938,46,-72.22,6.2
432,Port Augusta,-32.5,14.67,1,AU,1583346938,88,137.77,4.1
433,Kabo,7.7,30.94,42,CF,1583346938,17,18.63,1.13
434,Buala,-8.14,27.03,93,SB,1583346939,83,159.59,1.14
435,Jacareacanga,-6.22,33.34,48,BR,1583346939,55,-57.75,0.64
436,Calabasas,34.16,18.49,1,US,1583346939,59,-118.64,1.5
437,Yar-Sale,66.83,-13.67,99,RU,1583346939,91,70.83,11.09
438,Zhigansk,66.77,-17.38,100,RU,1583346939,93,123.37,7.16
439,Sola,-13.88,28.53,58,VU,1583346939,76,167.55,5.71
440,Ballina,-28.87,21.08,40,AU,1583346940,94,153.57,2.1
441,Polis,35.04,13.0,20,CY,1583346940,76,32.43,1.0
442,Egvekinot,66.32,-23.02,4,RU,1583346940,78,-179.17,1.59
443,Loa Janan,-0.58,22.81,100,ID,1583346940,97,117.09,0.46
444,Nishihara,26.18,16.17,75,JP,1583346940,93,127.76,6.2
445,Townsville,-19.25,27.64,75,AU,1583346643,88,146.8,2.6
446,Senanga,-16.12,20.16,75,ZM,1583346941,91,23.27,3.69
447,Nadym,65.53,-16.59,72,RU,1583346941,95,72.52,6.55
448,Quartucciu,39.25,11.54,49,IT,1583346941,62,9.18,6.7
449,Irbeyskoye,55.64,-4.68,100,RU,1583346941,85,95.45,4.08
450,Laas,46.62,-0.64,5,IT,1583346941,58,10.7,1.0
451,Islamkot,24.7,20.94,0,PK,1583346942,75,70.18,6.74
452,Safi,32.3,18.21,0,MA,1583346942,73,-9.24,8.01
453,Bubaque,11.28,27.11,0,GW,1583346942,66,-15.83,7.33
454,Norman Wells,65.28,-29.0,75,CA,1583346694,68,-126.83,2.48
455,Kelowna,49.88,7.37,20,CA,1583346790,41,-119.49,7.2
456,Satipo,-11.25,23.43,53,PE,1583346942,76,-74.64,1.49
457,Pimentel,-6.84,19.0,3,PE,1583346943,29,-79.93,7.2
458,Armidale,-30.52,15.56,99,AU,1583346666,78,151.65,0.45
459,Alofi,-19.06,22.0,17,NU,1583346943,100,-169.92,0.5
460,Xinzhi,36.5,0.15,0,CN,1583346943,49,111.7,2.86
461,Yangi Marg`ilon,40.43,8.29,96,UZ,1583346944,81,71.72,2.1
462,Ukiah,39.15,17.67,1,US,1583346944,51,-123.21,1.6
463,Gimbi,9.17,24.01,76,ET,1583346944,23,35.83,1.81
464,Sheridan,44.83,9.67,1,US,1583346716,29,-106.92,8.2
465,Elk Plain,47.05,7.86,75,US,1583346944,87,-122.4,3.1
466,Mahébourg,-20.41,26.28,40,MU,1583346945,100,57.7,1.0
467,Bocas del Toro,9.33,25.0,96,PA,1583346945,45,-82.25,2.68
468,Ozernovskiy,51.5,-3.97,100,RU,1583346945,65,156.52,2.62
469,Ulaanbaatar,47.91,-16.0,75,MN,1583346945,71,106.88,2.25
470,Vanimo,-2.67,28.35,100,PG,1583346945,83,141.3,7.22
471,Alghero,40.56,12.0,20,IT,1583346946,62,8.32,3.1
472,Soyo,-6.13,27.0,75,AO,1583346946,78,12.37,4.1
473,Vardø,70.37,-4.42,42,NO,1583346946,68,31.11,9.3
474,Songjianghe,42.19,-12.55,100,CN,1583346946,97,127.48,1.38
475,Sprimont,50.51,5.59,89,BE,1583346947,75,5.66,3.6
476,Zeya,53.75,-17.62,46,RU,1583346947,97,127.27,3.09
477,San Lorenzo,-25.33,36.0,20,PY,1583346797,23,-57.53,3.6
478,Sungai Raya,0.7,23.4,95,ID,1583346947,90,108.9,0.98
479,Hualmay,-11.1,28.12,64,PE,1583346947,55,-77.61,4.95
480,Yining,29.04,8.8,100,CN,1583346948,88,114.56,0.52
481,Kloulklubed,7.04,27.0,75,PW,1583346948,88,134.26,5.7
482,Boulder,40.08,11.99,1,US,1583346948,9,-105.35,8.2
483,Marsh Harbour,26.54,25.04,0,BS,1583346948,74,-77.06,7.71
484,Dakoro,14.51,30.66,0,NE,1583346948,8,6.76,4.21
485,Knysna,-34.04,21.0,22,ZA,1583346948,77,23.05,1.0
486,Avera,33.19,13.8,90,US,1583346949,92,-82.53,2.6
487,Chifeng,42.27,-11.2,0,CN,1583346949,72,118.96,3.18
488,Turinskaya Sloboda,57.62,-4.85,97,RU,1583346949,88,64.39,3.31
489,Mweka,-4.85,25.62,0,CD,1583346949,62,21.57,0.37
490,Dickinson,29.46,23.97,90,US,1583346949,78,-95.05,3.6
491,Bollnäs,61.35,-1.18,100,SE,1583346950,95,16.39,5.29
492,Udachny,66.42,-17.0,60,RU,1583346950,84,112.4,2.0
493,Seeboden,46.82,-0.31,20,AT,1583346950,86,13.49,2.41
494,Beringovskiy,63.05,-17.13,0,RU,1583346950,61,179.32,1.71
495,Laishevo,55.4,0.0,91,RU,1583346725,95,49.55,2.0
496,Kon Tum,14.35,19.99,89,VN,1583346950,92,108.0,1.13
497,Tapes,-30.67,26.21,100,BR,1583346951,47,-51.4,4.15
498,Koslan,63.46,-12.03,38,RU,1583346951,94,48.9,2.19
499,Luwuk,-0.95,27.44,100,ID,1583346951,78,122.79,5.3
500,Mormugao,15.4,26.0,20,IN,1583346951,74,73.8,3.6
501,Ruteng,-8.61,20.34,100,ID,1583346951,90,120.47,1.65
502,Juruti,-2.15,30.69,33,BR,1583346952,63,-56.09,2.82
503,Tomatlán,19.93,31.19,61,MX,1583346952,32,-105.25,2.05
504,Husavik,66.04,-8.0,6,IS,1583346952,72,-17.34,3.6
505,Marau,-28.45,26.0,40,BR,1583346952,44,-52.2,5.1
506,Bonthe,7.53,29.72,52,SL,1583346952,71,-12.51,5.07
507,Letlhakane,-21.42,23.52,46,BW,1583346952,44,25.58,5.43
508,Rio Grande,-32.03,27.39,40,BR,1583346722,51,-52.1,6.7
509,West Wendover,40.74,6.0,1,US,1583346953,60,-114.07,3.6
510,Ferkessédougou,9.6,34.3,80,CI,1583346953,27,-5.2,1.84
511,Tsimmerbude,54.67,3.0,40,RU,1583346953,75,20.13,3.0
512,Āreka,7.07,26.23,100,ET,1583346954,44,37.7,0.95
513,Mollendo,-17.02,21.71,71,PE,1583346954,81,-72.01,4.95
514,Mwene-Ditu,-7.0,20.56,16,CD,1583346954,90,23.45,0.64
515,Sivaki,52.63,-15.31,95,RU,1583346954,98,126.75,3.25
516,Nantucket,41.28,9.62,1,US,1583346954,61,-70.1,8.7
517,Ust'-Kan,50.93,-15.75,11,RU,1583346954,89,84.76,2.67
518,Vila do Maio,15.13,29.0,0,CV,1583346954,28,-23.22,8.7
519,Broken Hill,-31.95,16.0,90,AU,1583346955,93,141.43,6.2
520,Bouloupari,-21.87,22.0,20,NC,1583346955,94,166.05,0.5
521,Bara,10.37,31.89,27,NG,1583346955,13,10.73,3.3
522,Half Moon Bay,37.46,19.06,1,US,1583346955,52,-122.43,2.1
523,Key Largo,25.09,27.84,75,US,1583346904,66,-80.45,4.1
524,Berezovyy,51.67,-12.3,98,RU,1583346956,96,135.7,0.42
525,Comodoro Rivadavia,-45.87,26.0,83,AR,1583346956,54,-67.5,2.1
526,Zonguldak,41.25,9.42,68,TR,1583346956,60,31.83,2.54
527,Yenagoa,4.92,28.6,100,NG,1583346956,75,6.26,2.98
528,Batemans Bay,-35.72,20.56,100,AU,1583346803,95,150.18,1.34
529,Desaguadero,-16.57,11.1,7,PE,1583346957,62,-69.04,2.7
530,Gahanna,40.02,10.74,75,US,1583346851,45,-82.88,4.1
531,Zhashkiv,49.25,11.76,78,UA,1583346957,66,30.11,6.75
532,Barcelos,41.54,14.07,90,PT,1583346943,100,-8.62,4.6
533,Christchurch,-43.53,4.63,1,NZ,1583346957,100,172.63,1.22
534,NEDJO,9.5,20.64,53,ET,1583346958,25,35.5,2.23
535,Luk Pu,23.17,15.56,99,CN,1583346958,99,112.28,0.85
536,San Policarpo,12.18,25.95,46,PH,1583346958,89,125.51,3.31
537,Minas Novas,-17.22,28.57,98,BR,1583346959,66,-42.59,1.35
538,Khovd,48.01,-7.46,83,MN,1583346959,88,91.64,0.79
539,Mingyue,43.11,-11.06,80,CN,1583346959,93,128.92,2.77
540,Aksu,41.12,6.16,0,CN,1583346959,38,80.26,0.77
541,Havelock,34.88,16.16,90,US,1583346959,48,-76.9,2.6
542,Bacolod City,10.67,23.38,1,PH,1583346959,85,122.95,1.7
543,Tautira,-17.73,28.95,40,PF,1583346960,70,-149.15,2.6
544,Caravelas,-17.71,27.77,68,BR,1583346960,80,-39.25,7.16
545,Hobyo,5.35,24.97,0,SO,1583346960,79,48.53,6.45
546,Três de Maio,-27.77,31.9,0,BR,1583346776,33,-54.24,4.6
547,Kangaatsiaq,68.31,-22.91,17,GL,1583346960,75,-53.46,3.4
548,Fukuechō,32.69,5.0,20,JP,1583346961,56,128.84,10.3
549,Imeni Babushkina,59.76,-6.96,0,RU,1583346961,94,43.13,2.57
